SiteID;SiteCode;SiteName;Longitude;Latitude;Elevation;Regione;FullSiteCode;Elevation_flag
1;A001;Gorgazzo sorgente;12.4967;46.0399;68;FVG;OD:A001;1
2;A002;GORGAZZO;12.4951;46.038;68;FVG;OD:A002;1
3;A003;Molinetto c/o impianto ittiogenico;12.4757;46.0111;51;FVG;OD:A003;1
4;A004;FIASCHETTI;12.4828;45.9851;33;FVG;OD:A004;1
5;A007;MARSURE BARES;12.601;46.0873;188;FVG;OD:A007;1
7;A009;VAL DEI SASS;12.4919;46.1155;1777;FVG;OD:A009;1
8;A021;SACILE PONTE LACCHIN;12.502;45.9509;24;FVG;OD:A021;1
9;A023;Ponte della Muda;12.4467;45.9476;42;FVG;OD:A023;1
10;A050;AVIANO;12.6026;46.0648;150;FVG;OD:A050;1
11;A051;AVIANO CASA MARCHI;12.622;46.0707;171;FVG;OD:A051;1
12;A100;San Cassiano;12.5349;45.8767;15;FVG;OD:A100;1
13;A101;BRUGNERA;12.5231;45.8992;15;FVG;OD:A101;1
14;A102;Tremeacque ponte destro;12.5686;45.8284;13;FVG;OD:A102;1
15;A201;TRAMONTI DI SOPRA;12.7889;46.3098;506;FVG;OD:A201;1
16;A202;TRAMONTI DI SOTTO SCUOLE NUOVE;12.7931;46.2982;373;FVG;OD:A202;1
17;A204;MALGA REST;12.7989;46.3479;1331;FVG;OD:A204;1
18;A220;CA' ZUL;12.7162;46.2922;707;FVG;OD:A220;1
19;A221;CA' SELVA;12.7008;46.2585;788;FVG;OD:A221;1
20;A223;CHIEVOLIS;12.7331;46.2539;368;FVG;OD:A223;1
21;A224;CAMPONE;12.8313;46.2595;566;FVG;OD:A224;1
22;A226;MALGA VALINE ALTA;12.6751;46.236;1350;FVG;OD:A226;1
23;A240;PONTE RACLI;12.7499;46.2412;479;FVG;OD:A240;1
24;A241;PREPLANS;12.773;46.2179;334;FVG;OD:A241;1
25;A242;BORGO CILIA;12.795;46.2259;798;FVG;OD:A242;1
26;A243;VALDESTALI;12.7572;46.2075;505;FVG;OD:A243;1
27;A244;POFFABRO;12.7095;46.2165;519;FVG;OD:A244;1
28;A260;CAVASSO NUOVO;12.7747;46.2028;263;FVG;OD:A260;1
29;A261;MANIAGO PONTE SS. 464;12.7188;46.1739;259;FVG;OD:A261;1
30;A262;FRATTA VIVAIO FORESTALE;12.727;46.1785;289;FVG;OD:A262;1
31;A263;Colle ponte SS 464;12.8151;46.1636;224;FVG;OD:A263;1
32;A264;COLLE;12.8034;46.1688;215;FVG;OD:A264;1
33;A280;ARBA;12.8043;46.1435;205;FVG;OD:A280;1
34;A281;Tesis;12.7889;46.1251;181;FVG;OD:A281;1
35;A300;Ponte Meduna;12.6993;45.946;24;FVG;OD:A300;1
36;A301;PORDENONE LOCALITA' TORRE;12.6727;45.9682;29;FVG;OD:A301;1
37;A302;PORDENONE SEDE C.B.C.M.;12.6579;45.9635;31;FVG;OD:A302;1
38;A303;PORDENONE CAMPO ATLETICA;12.6498;45.9588;31;FVG;OD:A303;1
39;A304;Pordenone ponte via Santissima;12.659;45.9518;23;FVG;OD:A304;1
40;A320;Prata di Sopra;12.6025;45.9033;17;FVG;OD:A320;1
41;A321;Visinale di Sopra;12.6144;45.9029;17;FVG;OD:A321;1
42;A322;VISINALE PONTE FERRO;12.605;45.8978;17;FVG;OD:A322;1
43;A323;Prata di Pordenone;12.6035;45.8985;17;FVG;OD:A323;1
44;A324;Tremeacque ponte sinistro;12.5702;45.8283;13;FVG;OD:A324;1
45;A325;PORCIA RONDOVER;12.6141;45.9221;19;FVG;OD:A325;1
46;A400;CIMOLAIS CANONICA;12.4383;46.288;648;FVG;OD:A400;1
47;A401;CIMOLAIS PONTE SS. 251;12.4408;46.2857;648;FVG;OD:A401;1
48;A402;CLAUT;12.5147;46.2675;678;FVG;OD:A402;1
49;A403;LESIS;12.5445;46.2721;724;FVG;OD:A403;1
50;A409;BALDASS;12.5732;46.2425;1689;FVG;OD:A409;1
51;A410;CASERA PODESTINE;12.6014;46.2973;1146;FVG;OD:A410;1
52;A411;CASERA PRADUT;12.5643;46.2562;1393;FVG;OD:A411;1
53;A413;Val Settimana briglia;12.5001;46.2827;811;FVG;OD:A413;1
54;A414;FORCELLA SAVALONS;12.4868;46.3498;1929;FVG;OD:A414;1
55;A415;RIFUGIO PORDENONE;12.4893;46.3788;1216;FVG;OD:A415;1
56;A416;RIFUGIO PUSSA;12.59;46.345;1054;FVG;OD:A416;1
57;A417;CLAUT TRE PINI;12.5003;46.2635;636;FVG;OD:A417;1
58;A418;CELLINO DI SOPRA;12.4714;46.2465;547;FVG;OD:A418;1
59;A422;PRESCUDIN VILLA EMMA;12.4892;46.1927;650;FVG;OD:A422;1
60;A424;Arcola ponte per Prescudin;12.5156;46.2026;538;FVG;OD:A424;1
61;A425;Casa Fasolera;12.5423;46.1944;547;FVG;OD:A425;1
63;A440;PIANCAVALLO PISTA DI FONDO;12.5217;46.1133;1281;FVG;OD:A440;1
64;A461;BARCIS PONTE ANTOI;12.5749;46.1881;497;FVG;OD:A461;1
65;A462;BARCIS BORDO LAGO;12.5599;46.1897;432;FVG;OD:A462;1
66;A463;BARCIS STAZIONE FORESTALE;12.5637;46.1929;612;FVG;OD:A463;1
67;A464;ANDREIS PIAZZOLA CAMPEGGIO;12.612;46.1989;449;FVG;OD:A464;1
68;A467;PALA BARZANA;12.6592;46.1959;860;FVG;OD:A467;1
69;A468;DIGA CELLINA;12.5972;46.1879;545;FVG;OD:A468;1
70;A469;RAVEDIS INVASO;12.6566;46.1719;392;FVG;OD:A469;1
71;A470;Vajont argine Cellina;12.6815;46.1478;269;FVG;OD:A470;1
72;A471;Prapiero ponte svincolo gallerie;12.6039;46.1953;450;FVG;OD:A471;1
73;A472;Val Pentina casa Bimbo;12.5369;46.1874;490;FVG;OD:A472;1
74;A480;SAN LEONARDO VALCELLINA PARTIDOR;12.7058;46.0983;214;FVG;OD:A480;1
75;A600;LA CROSETTA;12.4052;46.0353;1132;FVG;OD:A600;1
76;A601;VAL SUGHET;12.5041;46.1193;1770;FVG;OD:A601;1
77;A603;CANDAGLIA;12.4428;46.0641;1288;FVG;OD:A603;1
78;A610;LUOGO DI GIULIO;12.7117;46.1396;269;FVG;OD:A610;1
79;A620;SAN QUIRINO LA ROIATA;12.6398;46.0166;109;FVG;OD:A620;1
80;A621;SAN QUIRINO OFFICINA C.B.C.M.;12.6312;46.0318;122;FVG;OD:A621;1
81;A622;SAN MARTINO DI CAMPAGNA;12.6441;46.0785;188;FVG;OD:A622;1
82;A623;RAUSCEDO STAZIONE DI POMPAGGIO C.B.C.M.;12.8244;46.0657;109;FVG;OD:A623;1
83;A624;BASALDELLA DI VIVARO;12.7906;46.0882;139;FVG;OD:A624;1
84;A625;SAN LEONARDO VALCELLINA;12.6824;46.0982;220;FVG;OD:A625;1
85;A626;VILLA RINALDI;12.7074;46.0295;95;FVG;OD:A626;1
86;A627;CORDENONS ACQUEDOTTO SAN GIOVANNI;12.7004;46.0092;72;FVG;OD:A627;1
87;A640;FORCATE EX ACQUEDOTTO;12.5886;45.9986;70;FVG;OD:A640;1
88;A641;COLESIT;12.5548;46.0124;72;FVG;OD:A641;1
89;A642;VILLADOLT;12.5683;45.9792;50;FVG;OD:A642;1
90;A643;VIGONOVO;12.5452;45.9859;46;FVG;OD:A643;1
91;B001;ERTO;12.3707;46.2778;830;FVG;OD:B001;1
92;B004;RIFUGIO MANIAGO;12.3937;46.3207;1906;FVG;OD:B004;1
93;C001;MAURIA;12.539;46.4447;1096;FVG;OD:C001;1
94;C003;FORNI DI SOPRA;12.5832;46.4236;989;FVG;OD:C003;1
95;C006;ANDRAZZA;12.5876;46.4047;850;FVG;OD:C006;1
96;C009;VARMOST PLAN DAI POS;12.5596;46.4546;1913;FVG;OD:C009;1
97;C022;PASSO DELLA MORTE STAVOLO MEZZAN;12.7151;46.3928;771;FVG;OD:C022;1
98;C023;Caprizi;12.7792;46.3732;619;FVG;OD:C023;1
99;C032;MALGA CJAMPIUZ;12.679;46.3512;1585;FVG;OD:C032;1
100;C050;Invillino Madonna del Ponte;12.9296;46.4038;356;FVG;OD:C050;1
101;C051;Tolmezzo Ponte Avons;13.0129;46.3902;295;FVG;OD:C051;1
102;C052;SELLA CHIANZUTAN;12.9403;46.3589;1097;FVG;OD:C052;1
103;C100;SAURIS DI SOPRA;12.6819;46.4673;1543;FVG;OD:C100;1
104;C101;SAURIS DI SOTTO;12.7081;46.4656;1163;FVG;OD:C101;1
105;C102;LA MAINA;12.7331;46.4509;1169;FVG;OD:C102;1
106;C103;CASERA CHIANSAVEIT;12.6264;46.4519;1642;FVG;OD:C103;1
107;C104;CASERA PIELTINIS;12.723;46.4845;1785;FVG;OD:C104;1
108;C120;AMPEZZO;12.7988;46.4148;530;FVG;OD:C120;1
109;C150;FORNI AVOLTRI;12.7738;46.5868;936;FVG;OD:C150;1
110;C151;COLLINA;12.839;46.5856;1345;FVG;OD:C151;1
111;C152;PRATO CARNICO PONTE R. AGAZZO;12.8113;46.5199;728;FVG;OD:C152;1
112;C153;PRATO CARNICO PONTE T. PESARINA;12.8056;46.5188;712;FVG;OD:C153;1
113;C154;PESARIIS;12.7757;46.5218;760;FVG;OD:C154;1
114;C155;COMEGLIANS;12.8645;46.5057;558;FVG;OD:C155;1
115;C156;RAVASCLETTO;12.9166;46.519;948;FVG;OD:C156;1
116;C159;CHIALINA;12.8715;46.4741;513;FVG;OD:C159;1
117;C164;PE' DI CLEVA CENTRO SCI NORDICO;12.7464;46.5705;1065;FVG;OD:C164;1
118;C183;ESEMON DI SOTTO;12.9068;46.4112;381;FVG;OD:C183;1
119;C184;RAVEO;12.8706;46.4331;520;FVG;OD:C184;1
120;C185;VILLA SANTINA;12.9115;46.4182;440;FVG;OD:C185;1
121;C200;PASSO DI MONTE CROCE CARNICO;12.945;46.6028;1522;FVG;OD:C200;1
122;C201;TIMAU;13.0068;46.5764;855;FVG;OD:C201;1
123;C202;CLEULIS;13.0056;46.5677;822;FVG;OD:C202;1
124;C203;PALUZZA;13.0118;46.5281;595;FVG;OD:C203;1
125;C204;ZOVELLO;12.9494;46.5308;934;FVG;OD:C204;1
126;C206;MALGA PLOTTA;12.8991;46.5942;2066;FVG;OD:C206;1
127;C207;MALGA PRAMOSIO;13.0296;46.5875;1564;FVG;OD:C207;1
128;C208;CASERA ZOUFPLAN BASSA;12.9839;46.5571;1528;FVG;OD:C208;1
129;C211;RIFUGIO TAMAI;12.9315;46.5015;1660;FVG;OD:C211;1
130;C230;PAULARO;13.1209;46.5263;678;FVG;OD:C230;1
131;C231;Ponte Lovea;13.075;46.4732;542;FVG;OD:C231;1
132;C232;CEDARCHIS;13.0359;46.4564;434;FVG;OD:C232;1
133;C235;CASON DI LANZA;13.1687;46.568;1703;FVG;OD:C235;1
134;C236;CASERA DEL MESTRI;13.1414;46.4812;1550;FVG;OD:C236;1
135;C260;AVOSACCO;13.0206;46.4793;500;FVG;OD:C260;1
136;C261;ARTA TERME;13.025;46.4743;629;FVG;OD:C261;1
137;C262;Terme di Arta;13.0183;46.4772;500;FVG;OD:C262;1
138;C263;TOLMEZZO;13.0225;46.4226;397;FVG;OD:C263;1
139;C264;TOLMEZZO PONTE DI CANEVA;13.0052;46.4098;352;FVG;OD:C264;1
140;C300;CAMPOROSSO;13.524;46.5087;913;FVG;OD:C300;1
141;C301;VAL UGOVIZZA;13.4784;46.548;1267;FVG;OD:C301;1
142;C303;Ugovizza;13.4717;46.5104;851;FVG;OD:C303;1
143;C304;MALBORGHETTO PONTE PER NEBRIA;13.44;46.506100000000004;741;FVG;OD:C304;1
144;C307;MALGA ACOMIZZA;13.5152;46.5481;1637;FVG;OD:C307;1
145;C331;Pontebba ponte vecchio SS 13;13.3256;46.5092;689;FVG;OD:C331;1
146;C333;PONTEBBA;13.3075;46.506100000000004;584;FVG;OD:C333;1
147;C335;Pontebba ponte per Studena Alta;13.3;46.5105;698;FVG;OD:C335;1
148;C336;STRADA PER PRAMOLLO;13.3035;46.5299;1041;FVG;OD:C336;1
149;C338;PASSO PRAMOLLO VALICO;13.275;46.5597;1551;FVG;OD:C338;1
151;C362;CHIOUT;13.3718;46.4522;962;FVG;OD:C362;1
152;C400;Dogna;13.3126;46.4425;498;FVG;OD:C400;1
153;C402;CHIUSAFORTE;13.3136;46.4076;436;FVG;OD:C402;1
154;C410;SALETTO DI RACCOLANA;13.3757;46.4027;636;FVG;OD:C410;1
155;C411;RACCOLANA;13.3175;46.4046;690;FVG;OD:C411;1
156;C412;LIVINAL LUNC;13.4722;46.3758;1514;FVG;OD:C412;1
157;C420;CORITIS;13.3926;46.348;689;FVG;OD:C420;1
158;C421;STOLVIZZA;13.3517;46.3635;675;FVG;OD:C421;1
159;C422;OSEACCO;13.3115;46.3628;483;FVG;OD:C422;1
160;C423;RESIA PRATO;13.2957;46.3759;610;FVG;OD:C423;1
161;C425;BORGO POVICI;13.2215;46.3887;337;FVG;OD:C425;1
162;C440;BEVORCHIANS;13.1891;46.4859;781;FVG;OD:C440;1
163;C442;GRAUZARIA;13.1844;46.4511;535;FVG;OD:C442;1
164;C444;Pradis;13.2013;46.423;472;FVG;OD:C444;1
165;C445;BIVACCO BIANCHI;13.2487;46.4561;1613;FVG;OD:C445;1
166;C462;DIGA IN ALBA;13.2158;46.4344;760;FVG;OD:C462;1
167;C463;MOGGIO UDINESE;13.2003;46.4088;467;FVG;OD:C463;1
168;C464;MOGGIO UDINESE PONTE SUL FELLA;13.1861;46.4001;343;FVG;OD:C464;1
169;C467;MALGA CJARIGUART;13.1849;46.3591;1638;FVG;OD:C467;1
170;C500;Pioverno;13.136;46.3417;240;FVG;OD:C500;1
171;C501;VENZONE;13.1428;46.3314;418;FVG;OD:C501;1
172;C503;Venzone ponte per Pioverno;13.1341;46.3355;239;FVG;OD:C503;1
173;C508;GEMONA CASA DI RIPOSO;13.1412;46.2788;290;FVG;OD:C508;1
174;C509;GEMONA CANCIANE;13.1363;46.2656;189;FVG;OD:C509;1
175;C512;Venzone spalla ponte Pioverno;13.1341;46.3354;239;FVG;OD:C512;1
176;C513;Ponte di Braulins sponda destra;13.0936;46.2827;198;FVG;OD:C513;1
177;C551;ALESSO;13.0556;46.3092;200;FVG;OD:C551;1
178;C553;OSOPPO;13.0711;46.2365;173;FVG;OD:C553;1
179;C554;ARTEGNA;13.1542;46.2337;215;FVG;OD:C554;1
180;C555;MAGNANO IN RIVIERA;13.1616;46.2284;187;FVG;OD:C555;1
181;C556;ANDREUZZA;13.086;46.2038;164;FVG;OD:C556;1
182;C600;SAN FRANCESCO;12.9365;46.3126;442;FVG;OD:C600;1
183;C601;San Francesco ponte;12.934;46.3134;442;FVG;OD:C601;1
184;C602;Flagogna Ponte Armistizio;12.956;46.2115;170;FVG;OD:C602;1
186;C620;PINZANO;12.9492;46.1792;173;FVG;OD:C620;1
187;C621;Villuzza;12.9566;46.1815;146;FVG;OD:C621;1
188;C640;CLAUZETTO;12.9178;46.2299;607;FVG;OD:C640;1
189;C641;Travesio ponte latteria;12.8713;46.1965;242;FVG;OD:C641;1
190;C642;TRAVESIO;12.8722;46.1989;242;FVG;OD:C642;1
191;C643;VACILE;12.8878;46.144;161;FVG;OD:C643;1
192;C660;BASEGLIA;12.9014;46.1275;137;FVG;OD:C660;1
193;C661;BARBEANO;12.8498;46.0846;121;FVG;OD:C661;1
194;C662;ISTRAGO;12.8805;46.1193;137;FVG;OD:C662;1
195;C664;Ponte di Dignano;12.9277;46.0854;99;FVG;OD:C664;1
196;C665;SPILIMBERGO LA FAVORITA;12.8825;46.1086;129;FVG;OD:C665;1
197;C700;PONTE DELLA DELIZIA CASELLO C.B.C.M.;12.8922;45.9733;52;FVG;OD:C700;1
198;C701;PONTE DELLA DELIZIA;12.9003;45.9652;51;FVG;OD:C701;1
199;C702;VARMO CASELLO IDRAULICO C.B.B.F.;12.9805;45.8792;16;FVG;OD:C702;1
200;C703;Madrisio ponte sul Tagliamento;12.9747;45.8608;14;FVG;OD:C703;1
201;C800;LATISANA;12.9969;45.7728;6;FVG;OD:C800;1
202;C801;Latisana scala;12.9958;45.7727;6;FVG;OD:C801;1
203;C803;BEVAZZANA CASELLO LITORANEA VENETA;13.069;45.672;2;FVG;OD:C803;1
205;C805;Casali Grinta;13.0094;45.8421;11;FVG;OD:C805;1
206;D001;SAN MARTINO AL TAGLIAMENTO;12.8597;46.0295;75;FVG;OD:D001;1
207;D002;ARZENUTTO;12.8706;46.0166;70;FVG;OD:D002;1
208;D003;SAN VITO AL TAGLIAMENTO OSPEDALE;12.8542;45.9123;30;FVG;OD:D003;1
209;D004;SAN VITO AL TAGLIAMENTO CIMITERO;12.8693;45.9255;37;FVG;OD:D004;1
210;D005;Stalis;12.862;45.8509;15;FVG;OD:D005;1
211;D100;SESTO AL REGHENA;12.8162;45.8475;13;FVG;OD:D100;1
212;D101;MURE;12.8052;45.8402;12;FVG;OD:D101;1
214;D300;ZUIANO;12.7132;45.874;14;FVG;OD:D300;1
215;D301;Panigai;12.6756;45.8295;9;FVG;OD:D301;1
216;D302;AZZANO DECIMO;12.7137;45.883;14;FVG;OD:D302;1
217;D400;Pescincanna;12.7493;45.9427;27;FVG;OD:D400;1
218;D401;SQUARZARE';12.6177;45.8439;12;FVG;OD:D401;1
219;E001;Biauzzo;12.9418;45.9668;49;FVG;OD:E001;1
220;E002;Codroipo centro;12.9788;45.9631;43;FVG;OD:E002;1
221;E003;Campomolle;13.0273;45.8485;10;FVG;OD:E003;1
222;E004;Teor;13.0466;45.851;11;FVG;OD:E004;1
223;E005;Flambruzzo;13.067;45.884;12;FVG;OD:E005;1
224;E006;Flambruzzo villa Badoglio;13.0697;45.8845;12;FVG;OD:E006;1
225;E007;Case Zoncolan;13.0831;45.8779;13;FVG;OD:E007;1
226;E008;Ariis;13.0881;45.8725;11;FVG;OD:E008;1
227;E009;Ariis cimitero;13.0946;45.8699;11;FVG;OD:E009;1
228;E010;Ariis Parco;13.0839;45.872;11;FVG;OD:E010;1
229;E011;ARIIS CENTRO E.T.P.;13.0835;45.8718;11;FVG;OD:E011;1
230;E012;Casali Sacile;13.0818;45.8633;10;FVG;OD:E012;1
231;E013;Casali Petazzo;13.1051;45.8682;11;FVG;OD:E013;1
232;E014;Pocenia;13.086;45.8364;5;FVG;OD:E014;1
233;E015;Case Trevisan;13.102;45.8136;6;FVG;OD:E015;1
234;E016;Casali Gambellini;13.0943;45.8462;9;FVG;OD:E016;1
235;E019;LATISANA CROSERE;13.0221;45.7865;5;FVG;OD:E019;1
236;E020;RIVAROTTA;13.081;45.8193;6;FVG;OD:E020;1
237;E021;PRECENICCO;13.0765;45.7873;3;FVG;OD:E021;1
238;E024;POCENIA ZONA INDUSTRIALE;13.1132;45.8332;9;FVG;OD:E024;1
239;E025;Palazzolo dello Stella;13.0743;45.8033;4;FVG;OD:E025;1
240;E033;Casa di guardia;13.0859;45.9041;20;FVG;OD:E033;1
241;E200;SAN DANIELE DEL FRIULI;13.014;46.1569;190;FVG;OD:E200;1
242;E201;SAN MAURO;13.0265;46.1469;166;FVG;OD:E201;1
243;E202;CODROIPO;12.9873;45.967;49;FVG;OD:E202;1
244;E203;Zompicchia;13.0016;45.9648;42;FVG;OD:E203;1
245;E206;GORICIZZA CASERME;12.9761;45.9697;47;FVG;OD:E206;1
246;E207;Coseano;13.0262;46.0851;120;FVG;OD:E207;1
247;E208;Codroipo ponte SP. 65;12.9926;45.9566;38;FVG;OD:E208;1
248;E400;Molino Vecchio;13.0511;45.8814;13;FVG;OD:E400;1
249;E401;Sivigliano;13.0534;45.882;13;FVG;OD:E401;1
250;E500;TURRIDA;12.9385;46.0262;82;FVG;OD:E500;1
251;E501;FLAIBANO;12.9817;46.0476;92;FVG;OD:E501;1
252;E502;LESTIZZA;13.1353;45.9512;42;FVG;OD:E502;1
253;E503;VILLACACCIA;13.0708;45.9723;46;FVG;OD:E503;1
254;E504;VILLAORBA;13.0686;46.0105;72;FVG;OD:E504;1
255;E505;SAN LORENZO DI SEDEGLIANO;12.9991;46.0011;66;FVG;OD:E505;1
256;E507;RIVOLTO;13.0213;45.9544;37;FVG;OD:E507;1
257;E509;TALMASSONS;13.1159;45.9287;29;FVG;OD:E509;1
258;E512;FAGAGNA POLIAMBULATORIO;13.098;46.1143;198;FVG;OD:E512;1
259;E513;PANTIANICCO;13.0393;46.0142;75;FVG;OD:E513;1
260;E514;COLLOREDO DI PRATO;13.1396;46.0572;100;FVG;OD:E514;1
261;F001;Casello F.S.;13.1036;45.8093;6;FVG;OD:F001;1
262;F003;Casa Longo;13.1046;45.8084;6;FVG;OD:F003;1
263;G001;ZEGLIANUTTO;13.1535;46.1961;219;FVG;OD:G001;1
264;G002;COLLALTO BORGO DI SOTTO;13.2034;46.1922;207;FVG;OD:G002;1
265;G003;COLLOREDO DI MONTE ALBANO;13.1458;46.1668;170;FVG;OD:G003;1
266;G004;ALNICCO;13.1658;46.1178;193;FVG;OD:G004;1
267;G005;CASTELLERIO;13.1875;46.1197;159;FVG;OD:G005;1
268;G006;Pagnacco;13.1964;46.1141;132;FVG;OD:G006;1
269;G007;MORUZZO;13.1269;46.1178;233;FVG;OD:G007;1
270;G008;Colugna;13.1925;46.0927;126;FVG;OD:G008;1
271;G009;RIZZI;13.1989;46.0879;120;FVG;OD:G009;1
272;G010;UDINE CASTELLO;13.2367;46.0649;109;FVG;OD:G010;1
273;G011;PASIAN DI PRATO;13.1797;46.0523;104;FVG;OD:G011;1
274;G012;TAVAGNACCO;13.2153;46.1266;156;FVG;OD:G012;1
275;G013;Basaldella di Campoformido;13.2079;46.0281;90;FVG;OD:G013;1
276;G050;POZZUOLO DEL FRIULI;13.195;45.9883;69;FVG;OD:G050;1
277;G051;MORTEGLIANO;13.1797;45.9474;40;FVG;OD:G051;1
278;G052;CASTIONS DI STRADA;13.1941;45.9052;22;FVG;OD:G052;1
279;G053;CORMOR PARADISO;13.1588;45.8797;16;FVG;OD:G053;1
280;G054;SANT'ANDRAT DEL CORMOR;13.162;45.9144;24;FVG;OD:G054;1
281;G100;ZAVATTINA;13.1599;45.8336;9;FVG;OD:G100;1
282;G101;Muzzana del Turgnano ponte SS 14;13.1296;45.8184;7;FVG;OD:G101;1
283;G102;Ponte SS 252 km 13;13.1655;45.9267;31;FVG;OD:G102;1
284;G103;Ponte SS 252 km 14;13.1825;45.9223;27;FVG;OD:G103;1
285;G200;TRICESIMO;13.2139;46.1514;188;FVG;OD:G200;1
286;G201;ADEGLIACCO;13.2287;46.1153;138;FVG;OD:G201;1
287;G202;Feletto Umberto;13.2281;46.0999;133;FVG;OD:G202;1
288;H001;Zellina;13.1725;45.83;6;FVG;OD:H001;1
289;H002;Zellina ponte ferrovia;13.1739;45.8271;6;FVG;OD:H002;1
290;J001;FAUGLIS;13.2648;45.8888;19;FVG;OD:J001;1
291;J002;Chiarisacco;13.2172;45.8385;7;FVG;OD:J002;1
292;J003;SAN GIORGIO DI NOGARO;13.2097;45.839;7;FVG;OD:J003;1
293;J004;San Giorgio di Nogaro cimitero;13.2071;45.8355;7;FVG;OD:J004;1
294;J005;PLANAIS;13.2426;45.7729;2;FVG;OD:J005;1
295;J200;Sevegliano;13.2979;45.8865;19;FVG;OD:J200;1
296;J201;Torviscosa case Savoiano;13.2451;45.8273;6;FVG;OD:J201;1
297;J202;Torviscosa Molino;13.2805;45.8286;5;FVG;OD:J202;1
298;J203;Torviscosa ponte ferrovia;13.2903;45.826;4;FVG;OD:J203;1
299;J204;Tre Ponti;13.3056;45.8268;3;FVG;OD:J204;1
300;J205;Muscoli;13.3322;45.8355;7;FVG;OD:J205;1
301;J206;Muscoli via San Zenone;13.3405;45.8357;8;FVG;OD:J206;1
302;J207;Cervignano floricoltura Vrech;13.3459;45.8239;8;FVG;OD:J207;1
303;J208;CASTIONS DELLE MURE CASALI FABBRICA;13.312;45.8419;6;FVG;OD:J208;1
304;J209;TORVISCOSA;13.2754;45.8188;3;FVG;OD:J209;1
305;J210;Visco;13.3462;45.8927;25;FVG;OD:J210;1
306;J211;BELVAT;13.2951;45.802;3;FVG;OD:J211;1
307;J212;CERVIGNANO;13.3412;45.8163;9;FVG;OD:J212;1
308;J400;RISANO CASE MOSCHIONI;13.2514;45.9847;65;FVG;OD:J400;1
309;J401;GRIS CUCCANA;13.2343;45.9366;38;FVG;OD:J401;1
310;J402;PALMANOVA;13.2997;45.9125;30;FVG;OD:J402;1
311;J403;TRIVIGNANO UDINESE;13.34;45.949;45;FVG;OD:J403;1
312;J404;LAUZACCO;13.2827;45.9784;60;FVG;OD:J404;1
313;J405;IALMICCO SEDE PROTEZIONE CIVILE REGIONALE;13.3331;45.9112;29;FVG;OD:J405;1
314;J406;PAVIA DI UDINE;13.2962;45.992;67;FVG;OD:J406;1
315;K001;AQUILEIA IDROVORA CA' PADOVANO;13.3534;45.7471;2;FVG;OD:K001;1
316;K002;Scodovacca;13.3703;45.8207;8;FVG;OD:K002;1
317;K003;Borgo Modena;13.3811;45.8189;8;FVG;OD:K003;1
318;K005;Case Polzin;13.3637;45.8076;4;FVG;OD:K005;1
319;K006;Malborghetto di Cervignano;13.3652;45.8051;4;FVG;OD:K006;1
320;L001;CA' VIOLA;13.4159;45.7422;2;FVG;OD:L001;1
321;M001;VAL LOVATO;13.0981;45.682;1;FVG;OD:M001;1
322;M002;LIGNANO SABBIADORO;13.1212;45.6865;1;FVG;OD:M002;1
323;M004;VAL PANTANI;13.0755;45.692;1;FVG;OD:M004;1
324;M005;FRAIDA;13.104;45.7371;1;FVG;OD:M005;1
325;M006;LAME DI PRECENICCO;13.0654;45.7148;3;FVG;OD:M006;1
326;M007;MARANO LAGUNARE COLOMBA;13.1906;45.7754;2;FVG;OD:M007;1
327;M050;CA' ANFORA;13.3142;45.7601;2;FVG;OD:M050;1
328;M051;GRADO SEDE G.I.T.;13.3947;45.6765;1;FVG;OD:M051;1
329;M053;GRADO MOLO TORPEDINIERE;13.3835;45.6831;1;FVG;OD:M053;1
330;M054;GRADO VALLE CAVARERA;13.4198;45.6861;1;FVG;OD:M054;1
331;N001;UCCEA;13.4004;46.3065;703;FVG;OD:N001;1
332;N020;Ponte Piuma;13.6143;45.9562;65;FVG;OD:N020;1
333;N021;Gorizia teleferica Ponte Piuma;13.6156;45.957;65;FVG;OD:N021;1
334;N022;GORIZIA PRESA C.B.P.I.;13.596;45.9341;49;FVG;OD:N022;1
335;N023;Mainizza;13.5589;45.9064;40;FVG;OD:N023;1
336;N024;FARRA D'ISONZO M. FORTIN;13.5344;45.9083;52;FVG;OD:N024;1
337;N026;GRADISCA D'ISONZO;13.4971;45.8845;30;FVG;OD:N026;1
338;N027;Gradisca d'Isonzo ponte pedonale;13.5052;45.8857;31;FVG;OD:N027;1
339;N028;Gradisca d'Isonzo casello idraulico;13.5001;45.8827;64;FVG;OD:N028;1
340;N029;Sagrado ponte SS 305;13.485;45.8786;29;FVG;OD:N029;1
341;N030;RUDA CIMITERO;13.404;45.832;10;FVG;OD:N030;1
342;N031;Gorizia via San Gabriele;13.6338;45.9529;92;FVG;OD:N031;1
343;N040;Turriaco;13.4301;45.8164;11;FVG;OD:N040;1
344;N041;Pieris ponte SS 14;13.4296;45.8055;9;FVG;OD:N041;1
345;N042;FIUMICELLO;13.4048;45.7661;2;FVG;OD:N042;1
346;N043;ISOLA MOROSINI EX MAGAZZINO TABACCO;13.4402;45.7672;3;FVG;OD:N043;1
347;N044;ISOLA MOROSINI IDROVORA TERRANOVA;13.4771;45.7527;2;FVG;OD:N044;1
348;N045;FOSSALON BONIFICA VITTORIA;13.4966;45.7341;1;FVG;OD:N045;1
349;N046;Villa Vicentina via Sant'Antonio;13.4004;45.8101;9;FVG;OD:N046;1
350;N100;MUSI LOCALITA' TANATAVIELE;13.272;46.3132;669;FVG;OD:N100;1
351;N101;MUSI SORGENTI TORRE;13.2726;46.3072;622;FVG;OD:N101;1
352;N103;VEDRONZA;13.2562;46.2618;351;FVG;OD:N103;1
353;N104;CISERIIS;13.2294;46.2288;295;FVG;OD:N104;1
354;N105;TARCENTO PONTE PER OLTRETORRE;13.2237;46.2169;238;FVG;OD:N105;1
355;N108;GRAN MONTE RIFUGIO ALPINI;13.3508;46.2905;1499;FVG;OD:N108;1
356;N150;Qualso ponte di Nimis;13.2511;46.1891;184;FVG;OD:N150;1
357;N151;ZOMPITTA PRESA C.B.L.T.;13.2547;46.1714;174;FVG;OD:N151;1
358;N153;Zompitta Borgo di Sotto;13.2573;46.1638;167;FVG;OD:N153;1
359;N154;Cerneglons ponte;13.3107;46.0427;89;FVG;OD:N154;1
360;N155;Viscone;13.3781;45.9246;33;FVG;OD:N155;1
361;N156;Tapogliano ex ponte SS 252;13.4072;45.8927;27;FVG;OD:N156;1
362;N157;Villesse ponte SS 351;13.4199;45.8511;18;FVG;OD:N157;1
363;N200;PONTE SAMBO;13.3293;46.267;509;FVG;OD:N200;1
364;N201;CERGNEU SUPERIORE;13.3134;46.2148;316;FVG;OD:N201;1
365;N202;Molmentet;13.2664;46.1899;241;FVG;OD:N202;1
366;N300;ATTIMIS BORGO FARIS;13.3179;46.1731;216;FVG;OD:N300;1
367;N301;SUBIT;13.3515;46.2049;752;FVG;OD:N301;1
368;N302;POVOLETTO;13.309;46.1229;128;FVG;OD:N302;1
369;N303;CANALUTTO;13.4317;46.1573;362;FVG;OD:N303;1
370;N304;TOGLIANO;13.3902;46.121;155;FVG;OD:N304;1
371;N305;Faedis;13.3485;46.1513;198;FVG;OD:N305;1
372;N306;Faedis campo sportivo;13.3451;46.1482;161;FVG;OD:N306;1
373;N309;Torreano;13.43;46.1255;193;FVG;OD:N309;1
374;N310;Selvis;13.3339;46.0693;100;FVG;OD:N310;1
375;N311;CERNEGLONS;13.3181;46.0558;90;FVG;OD:N311;1
376;N312;Attimis ponte SS 365;13.3058;46.1883;195;FVG;OD:N312;1
377;N313;ORZANO;13.358;46.0617;106;FVG;OD:N313;1
378;N400;PLATISCHIS;13.3806;46.243;739;FVG;OD:N400;1
379;N401;STUPIZZA;13.4711;46.2004;313;FVG;OD:N401;1
380;N402;LINDER;13.4773;46.1814;281;FVG;OD:N402;1
381;N404;PULFERO;13.4831;46.1733;245;FVG;OD:N404;1
382;N405;MONTEMAGGIORE;13.5329;46.1945;1022;FVG;OD:N405;1
383;N406;SAN VOLFANGO;13.6427;46.165;582;FVG;OD:N406;1
384;N407;DRENCHIA;13.6223;46.1752;670;FVG;OD:N407;1
385;N408;CLODIG;13.5924;46.1557;312;FVG;OD:N408;1
386;N410;AZZIDA;13.4947;46.1183;165;FVG;OD:N410;1
387;N416;TRIBIL INFERIORE;13.5853;46.1193;548;FVG;OD:N416;1
388;N417;MALGHE MERSINO;13.5243;46.2122;1424;FVG;OD:N417;1
389;N450;CIVIDALE ISTITUTO AGRARIO;13.4182;46.0967;135;FVG;OD:N450;1
390;N451;Cividale Ponte del Diavolo;13.4301;46.0913;133;FVG;OD:N451;1
391;N452;MANZANO PONTE CASE;13.391;45.9918;75;FVG;OD:N452;1
392;N454;MANZANO;13.3819;45.9973;85;FVG;OD:N454;1
393;N601;ALBANA;13.4898;46.0483;105;FVG;OD:N601;1
394;N602;BRAZZANO;13.4534;45.9768;90;FVG;OD:N602;1
395;N603;CORMONS;13.4693;45.96;101;FVG;OD:N603;1
396;N604;Versa ponte SS 252;13.4219;45.898;23;FVG;OD:N604;1
397;N605;GIASBANA;13.5748;45.9678;148;FVG;OD:N605;1
398;N606;CAPRIVA LOCALITA' LA BAITA;13.5122;45.9468;50;FVG;OD:N606;1
399;N607;Ruzzis;13.5196;45.9538;57;FVG;OD:N607;1
400;N608;La Baita ponte;13.5111;45.9467;50;FVG;OD:N608;1
401;N609;Fratta;13.4372;45.909;29;FVG;OD:N609;1
402;N610;Mariano del Friuli;13.4561;45.9211;34;FVG;OD:N610;1
403;N611;VERSA;13.4077;45.8948;27;FVG;OD:N611;1
405;N700;Rupa ponte SS 55;13.5875;45.8897;57;FVG;OD:N700;1
406;N701;GORIZIA AEROPORTO DI MERNA;13.5967;45.9112;61;FVG;OD:N701;1
407;N703;Savogna d'Isonzo ponte ferrovia;13.57;45.8987;50;FVG;OD:N703;1
408;N704;Savogna d'Isonzo ponte SP 8;13.5686;45.9005;44;FVG;OD:N704;1
409;P001;MONFALCONE;13.5371;45.8068;9;FVG;OD:P001;1
410;P002;ALBERONI IDROVORA SACCHETTI;13.5131;45.7779;3;FVG;OD:P002;1
411;P005;MONFALCONE PISCINA COMUNALE;13.5115;45.7965;4;FVG;OD:P005;1
412;R001;DOBERDO' CENTRO VISITE GRADINA;13.5472;45.843;144;FVG;OD:R001;1
413;R100;SAN PELAGIO;13.6868;45.7655;217;FVG;OD:R100;1
414;R101;PROSECCO ELIPORTO;13.7576;45.7031;263;FVG;OD:R101;1
415;R102;BORGO GROTTA GIGANTE;13.7644;45.7094;278;FVG;OD:R102;1
416;R103;OPICINA;13.7914;45.6842;327;FVG;OD:R103;1
417;R104;BASOVIZZA;13.8598;45.6416;380;FVG;OD:R104;1
418;S001;BARCOLA;13.7523;45.6828;48;FVG;OD:S001;1
419;S002;TRIESTE ISTITUTO NAUTICO;13.7646;45.6475;18;FVG;OD:S002;1
420;S003;SERVOLA;13.7829;45.6269;14;FVG;OD:S003;1
421;S005;MUGGIA;13.7747;45.6011;NA;FVG;OD:S005;NA
422;S006;TRIESTE CATTINARA;13.8331;45.6354;340;FVG;OD:S006;1
423;T001;Francovec;13.82;45.6073;50;FVG;OD:T001;1
424;U003;NOGHERE;13.8168;45.5853;42;FVG;OD:U003;1
425;V001;TARVISIO CAMPO SPORTIVO;13.5938;46.5045;732;FVG;OD:V001;1
426;V002;TARVISIO;13.5701;46.5063;770;FVG;OD:V002;1
427;V003;CAVE DEL PREDIL;13.5707;46.4423;935;FVG;OD:V003;1
428;V005;VALICO DI FUSINE;13.6823;46.4997;998;FVG;OD:V005;1
429;V008;PASSO DEL PREDIL EX FORTE;13.5735;46.4189;1151;FVG;OD:V008;1
430;V010;CAVE DEL PREDIL PONTE MINIERA;13.5698;46.4411;989;FVG;OD:V010;1
431;V013;MALGA ALPE DEL LAGO;13.662;46.4667;968;FVG;OD:V013;1
