SiteID;SiteCode;SiteName;Longitude;Latitude;Elevation;Elevation_flag;FullSiteCode;cod_rete;cod_reg;nota
1;1010;Lentina;12.674973;38.052187000000004;113;1;OD:1010;NA;19;NA
2;1030;Trapani;12.506774;38.013603;2;1;OD:1030;NA;19;NA
3;1040;Castellammare del Golfo;12.885201;38.020576;61;1;OD:1040;NA;19;NA
4;1050;San Vito Lo Capo;12.732357;38.187465;9;1;OD:1050;NA;19;NA
5;1060;Fastaia;12.741669;37.929297;226;1;OD:1060;NA;19;NA
6;1080;Borgo Fazio;12.663609;37.85613;176;1;OD:1080;NA;19;NA
7;1100;Birgi Nuovo;12.495327;37.883963;21;1;OD:1100;NA;19;NA
8;1110;Ciavolo;12.550884;37.759824;98;1;OD:1110;NA;19;NA
9;1120;Marsala;12.456187;37.810158;5;1;OD:1120;NA;19;NA
10;1140;Mazara del Vallo;12.599055;37.656656;8;1;OD:1140;NA;19;NA
11;1150;Salemi;12.80567;37.828797;327;1;OD:1150;NA;19;NA
12;1160;Diga Trinità;12.752419;37.691296;138;1;OD:1160;NA;19;NA
13;1180;Partanna;12.891589;37.729407;426;1;OD:1180;NA;19;NA
14;1190;Castelvetrano;12.800031;37.691017;174;1;OD:1190;NA;19;NA
15;1240;Maganoce Diga;13.288741;37.963727;701;1;OD:1240;NA;19;NA
16;1270;Corleone;13.301266;37.814435;629;1;OD:1270;NA;19;NA
17;130;Montalbano Elicona;15.016871;38.022565;946;1;OD:130;NA;19;NA
18;1300;Roccamena;13.153068;37.833963;471;1;OD:1300;NA;19;NA
19;1340;Menfi;12.962563;37.600933;121;1;OD:1340;NA;19;NA
20;1370;Diga Arancio;13.061259;37.625709;184;1;OD:1370;NA;19;NA
21;1390;Caltabellotta;13.215319;37.576012;736;1;OD:1390;NA;19;NA
22;1400;Sciacca;13.126871;37.511873;110;1;OD:1400;NA;19;NA
23;1410;Prizzi;13.420185;37.718879;890;1;OD:1410;NA;19;NA
24;1420;Piano del Leone;13.465549;37.670792;876;1;OD:1420;NA;19;NA
25;1430;Palazzo Adriano;13.378685;37.685958;620;1;OD:1430;NA;19;NA
26;1455;Bisacquino;13.257793;37.698209;590;1;OD:1455;NA;19;NA
27;1460;Ribera;13.272236;37.50326;216;1;OD:1460;NA;19;NA
28;1475;Diga Castello;13.408301;37.580671;264;1;OD:1475;NA;19;NA
29;1480;Bivona;13.438949;37.61914;554;1;OD:1480;NA;19;NA
30;1490;Lercara Friddi;13.599913;37.74721;676;1;OD:1490;NA;19;NA
31;150;San Piero Patti;14.965536;38.05387;384;1;OD:150;NA;19;NA
32;1520;Diga Platani (Fanaco);13.552996;37.670208;667;1;OD:1520;NA;19;NA
33;1530;Vivaio Cammarata;13.60486;37.617762;1403;1;OD:1530;NA;19;NA
34;1600;Santa Caterina Villarmosa;14.029313;37.587764;606;1;OD:1600;NA;19;NA
35;1630;Marianopoli;13.900365;37.603097;525;1;OD:1630;NA;19;NA
36;1660;Vallelunga;13.834319;37.67867;472;1;OD:1660;NA;19;NA
37;1680;Mussomeli;13.754307;37.583624;821;1;OD:1680;NA;19;NA
38;1700;Racalmuto;13.729697;37.409678;419;1;OD:1700;NA;19;NA
40;1760;Cattolica  Eraclea;13.396481;37.440389;197;1;OD:1760;NA;19;NA
41;1810;Agrigento;13.588111;37.303537;212;1;OD:1810;NA;19;NA
42;1820;Aragona;13.642465;37.379207;332;1;OD:1820;NA;19;NA
43;1840;Canicattì;13.849812;37.357789;456;1;OD:1840;NA;19;NA
44;1860;Petralia Sottana;14.093591;37.818103;1025;1;OD:1860;NA;19;NA
45;1880;Savochella;14.120958;37.825671;1447;1;OD:1880;NA;19;NA
46;1900;Alimena;14.120925;37.705657;798;1;OD:1900;NA;19;NA
47;1915;Castellana Sicula;14.036867;37.78663;770;1;OD:1915;NA;19;NA
48;1960;Enna;14.272487;37.56782;804;1;OD:1960;NA;19;NA
49;1970;Villadoro;14.263375;37.692547;834;1;OD:1970;NA;19;NA
50;2020;Caltanissetta;14.057065;37.496096;635;1;OD:2020;NA;19;NA
51;2040;Pietraperzia;14.137957;37.420457999999996;456;1;OD:2040;NA;19;NA
52;2100;Sommatino;13.995316;37.337374;352;1;OD:2100;NA;19;NA
53;2180;Cambobello di Licata;13.918287;37.264901;312;1;OD:2180;NA;19;NA
54;2190;Cipolla Sottana;13.84337;37.198233;319;1;OD:2190;NA;19;NA
55;220;Tortorici;14.824671;38.030117;590;1;OD:220;NA;19;NA
56;2200;Licata;13.932402;37.098433;48;1;OD:2200;NA;19;NA
57;2220;Butera;14.184211;37.187795;252;1;OD:2220;NA;19;NA
58;2230;Comunelli Diga;14.150239;37.155767;78;1;OD:2230;NA;19;NA
59;2240;Gela;14.251353;37.063464;23;1;OD:2240;NA;19;NA
60;2250;Piazza  Armerina;14.369765;37.388265;708;1;OD:2250;NA;19;NA
61;2260;Dissueri Diga;14.289906;37.190185;165;1;OD:2260;NA;19;NA
63;2300;Chiaramonte Gulfi;14.703078;37.028439;673;1;OD:2300;NA;19;NA
64;2310;Ragoleto Diga;14.681745;37.126438;353;1;OD:2310;NA;19;NA
65;2340;Ponte Dirillo;14.407827;37.022689;24;1;OD:2340;NA;19;NA
66;2370;Ragusa;14.723773;36.922496;532;1;OD:2370;NA;19;NA
67;2380;Modica;14.761858;36.858803;382;1;OD:2380;NA;19;NA
68;2410;Ispica;14.915745;36.784694;124;1;OD:2410;NA;19;NA
70;2440;Castelluccio;14.916855;36.932496;180;1;OD:2440;NA;19;NA
71;2470;Palazzolo Acreide;14.899688;37.060965;633;1;OD:2470;NA;19;NA
72;2540;Siracusa;15.29155;37.059442;10;1;OD:2540;NA;19;NA
73;2550;Augusta;15.223771;37.228938;9;1;OD:2550;NA;19;NA
74;2580;Lentini città;14.998246;37.290823;40;1;OD:2580;NA;19;NA
75;2735;Ancipa;14.57658;37.82844;986;1;OD:2735;NA;19;NA
76;2790;Bronte;14.83284;37.785136;737;1;OD:2790;NA;19;NA
77;2800;Nicosia;14.396684;37.746825;673;1;OD:2800;NA;19;NA
78;2850;Pozzillo Diga;14.60819;37.672687;412;1;OD:2850;NA;19;NA
79;2950;Nicoletti Diga;14.348322;37.606211;367;1;OD:2950;NA;19;NA
80;30;Ziriò Caserma Forestale;15.470964;38.177247;799;1;OD:30;NA;19;NA
81;3010;Don Sturzo Diga;14.576464;37.445905;178;1;OD:3010;NA;19;NA
82;3050;Caltagirone;14.517966;37.239686;428;1;OD:3050;NA;19;NA
83;3060;Mineo;14.690246;37.264436;459;1;OD:3060;NA;19;NA
84;3090;Nicolosi;15.02659;37.613601;674;1;OD:3090;NA;19;NA
85;310;San Fratello;14.598359;38.016142;654;1;OD:310;NA;19;NA
86;3110;Zafferana Etnea;15.105789;37.694213;590;1;OD:3110;NA;19;NA
87;3120;Linguaglossa;15.144488;37.839333;512;1;OD:3120;NA;19;NA
88;3150;Acireale;15.165228;37.620461;184;1;OD:3150;NA;19;NA
89;3160;Catania Istituto d'Agraria;15.071749;37.517405;102;1;OD:3160;NA;19;NA
90;3180;Cavagrande;15.142818;37.730938;301;1;OD:3180;NA;19;NA
91;3210;Floresta;14.908035;37.986395;1266;1;OD:3210;NA;19;NA
92;3250;Randazzo;14.945065;37.876891;759;1;OD:3250;NA;19;NA
93;3280;Francavilla di Sicilia;15.144709;37.906173;263;1;OD:3280;NA;19;NA
94;330;Mistretta;14.361823;37.925314;858;1;OD:330;NA;19;NA
95;3310;Taormina;15.292077;37.851785;78;1;OD:3310;NA;19;NA
96;3330;Ranciara;15.271158;37.956568;271;1;OD:3330;NA;19;NA
97;3360;Santo Stefano di Briga;15.480576;38.099023;219;1;OD:3360;NA;19;NA
98;3380;Messina Istituto Geofisico;15.554106;38.200472;31;1;OD:3380;NA;19;NA
99;3400;Ganzirri;15.608303;38.25589;1;1;OD:3400;NA;19;NA
100;3470;Lampedusa;12.59181;35.501699;NA;NA;OD:3470;NA;19;NA
101;3480;Linosa;12.859115;35.858969;NA;NA;OD:3480;NA;19;NA
103;3550;Torrente dei Mulini a Guglielmotto;14.133481;37.914441;295;1;OD:3550;NA;19;NA
104;3560;Isnello a Ponte Grande;13.998482;37.936108;619;1;OD:3560;NA;19;NA
105;3570;Castelbuono a Ponte Vecchio;14.100978;37.949158;238;1;OD:3570;NA;19;NA
106;3580;Imera Settendrionale a Scillato;13.918471;37.840543;290;1;OD:3580;NA;19;NA
107;360;Tusa;14.235875;37.972913;560;1;OD:360;NA;19;NA
108;3630;Milicia a Milicia;13.505685;38.00277;149;1;OD:3630;NA;19;NA
109;3640;Eleuterio a Lupo;13.37263;37.901378;538;1;OD:3640;NA;19;NA
110;3670;Oreto a Parco;13.303466;38.064715;173;1;OD:3670;NA;19;NA
111;3690;Jato a Fellamonica;13.13234;37.96277;228;1;OD:3690;NA;19;NA
113;3830;Platani a Passofonduto;13.680142;37.491095;224;1;OD:3830;NA;19;NA
114;3860;Imera Meridionale a Petralia;14.084315;37.80305;882;1;OD:3860;NA;19;NA
115;3900;Salso a Monzanaro;14.16432;37.67055;415;1;OD:3900;NA;19;NA
116;3910;Imera Meridionale a Cinque Archi;14.132088;37.603881;368;1;OD:3910;NA;19;NA
117;3950;Imera Meridionale a Besaro;14.085987;37.433598;267;1;OD:3950;NA;19;NA
118;3960;Imera Merionale a Drasi;13.993483;37.206928;82;1;OD:3960;NA;19;NA
119;3980;Tellaro a Castelluccio;14.920717;36.929998;180;1;OD:3980;NA;19;NA
121;4070;Saraceno a Chiusitta;14.82962;37.932502;1209;1;OD:4070;NA;19;NA
122;4080;Troina a Serravalle;14.795446;37.80528;565;1;OD:4080;NA;19;NA
123;410;Pomieri;14.058979;37.856799;1333;1;OD:410;NA;19;NA
124;4100;Salso a Ponte Gagliano;14.532104;37.674439;419;1;OD:4100;NA;19;NA
125;4150;Flascio a Ponte Flascio;14.888228;37.869443;884;1;OD:4150;NA;19;NA
126;4180;Alcantara a Moio;15.056293;37.896389;530;1;OD:4180;NA;19;NA
127;430;Castelbuono;14.089174;37.929744;390;1;OD:430;NA;19;NA
128;450;Piano Formaggio;14.004754;37.882271;1298;1;OD:450;NA;19;NA
129;470;Cefalù;14.016339;38.033856;58;1;OD:470;NA;19;NA
130;480;Collesano;13.937667;37.918019;519;1;OD:480;NA;19;NA
131;510;Polizzi Generosa;14.008393;37.823825;879;1;OD:510;NA;19;NA
132;520;Scillato;13.914364;37.862158;425;1;OD:520;NA;19;NA
133;550;Alia;13.713416;37.7766;698;1;OD:550;NA;19;NA
134;590;Bivio Cerda;13.782945;37.948686;36;1;OD:590;NA;19;NA
135;600;Vicari;13.569884;37.827546;546;1;OD:600;NA;19;NA
136;660;Ciminna;13.559357;37.891796;467;1;OD:660;NA;19;NA
138;670;Monumentale;13.681665;37.988936;19;1;OD:670;NA;19;NA
139;70;Castroreale;15.211153;38.09821;300;1;OD:70;NA;19;NA
141;750;Misilmeri;13.453966;38.033158;106;1;OD:750;NA;19;NA
142;760;San Ciro;13.387358;38.085577;73;1;OD:760;NA;19;NA
143;770;Poggio San Francesco;13.266572;38.01791;760;1;OD:770;NA;19;NA
144;840;San Martino delle Scale;13.253264;38.089348;558;1;OD:840;NA;19;NA
145;850;Partinico;13.127707;38.0553;180;1;OD:850;NA;19;NA
146;860;Cinisi;13.106979;38.154079;67;1;OD:860;NA;19;NA
147;880;Palermo Osservatorio Astronomico;13.350685;38.109161;27;1;OD:880;NA;19;NA
148;910;Palermo Istituto Castelnuovo;13.33471;38.158634;67;1;OD:910;NA;19;NA
149;950;San Giuseppe Jato;13.187319;37.973021;583;1;OD:950;NA;19;NA
152;980;Calatafimi;12.875499;37.905647;251;1;OD:980;NA;19;NA
153;990;Erice;12.588026;38.036853;662;1;OD:990;NA;19;NA
